{
    "type": "FeatureCollection",
    "properties": {
        "name": "New 7 Wonders of the World"
    },
    "features": [
        {
            "type": "Feature",
            "properties": {
                "name": "Taj Mahal"
            },
            "geometry": {
                "type": "Point",
                "coordinates": [
                    78.0421,
                    27.1751
                ]
            }
        },
        {
            "type": "Feature",
            "properties": {
                "name": "Christ the Redeemer"
            },
            "geometry": {
                "type": "Point",
                "coordinates": [
                    -43.2105,
                    -22.9519
                ]
            }
        },
        {
            "type": "Feature",
            "properties": {
                "name": "Machu Pichu"
            },
            "geometry": {
                "type": "Point",
                "coordinates": [
                    -72.5450,
                    -13.1631
                ]
            }
        },
        {
            "type": "Feature",
            "properties": {
                "name": "Colosseum"
            },
            "geometry": {
                "type": "Point",
                "coordinates": [
                    12.4922,
                    41.8902
                ]
            }
        },
        {
            "type": "Feature",
            "properties": {
                "name": "Petra"
            },
            "geometry": {
                "type": "Point",
                "coordinates": [
                    35.4444,
                    30.3285
                ]
            }
        },
        {
            "type": "Feature",
            "properties": {
                "name": "Chichen Itza"
            },
            "geometry": {
                "type": "Point",
                "coordinates": [
                    -88.5678,
                    20.6843
                ]
            }
        },
        {
            "type": "Feature",
            "properties": {
                "name": "Great Wall of China"
            },
            "geometry": {
                "type": "Point",
                "coordinates": [
                    105.8828,
                    40.1284
                ]
            }
        }   
    ]
}